{
  "statisticalList": [
    {
      "code": "500101",
      "name": "万州区",
      "count": "2",
      "lng": 108.313898,
      "lat": 30.705636
    },
    {
      "code": "500102",
      "name": "涪陵区",
      "count": "3",
      "lng": 107.287105,
      "lat": 29.685946
    },
    {
      "code": "500103",
      "name": "渝中区",
      "count": "19",
      "lng": 106.552566,
      "lat": 29.556566
    },
    {
      "code": "500104",
      "name": "大渡口区",
      "count": "2",
      "lng": 106.482228,
      "lat": 29.484567
    },
    {
      "code": "500105",
      "name": "江北区",
      "count": "9",
      "lng": 106.531527,
      "lat": 29.57328
    },
    {
      "code": "500106",
      "name": "沙坪坝区",
      "count": "8",
      "lng": 106.457455,
      "lat": 29.54112
    },
    {
      "code": "500107",
      "name": "九龙坡区",
      "count": "7",
      "lng": 106.511132,
      "lat": 29.502161
    },
    {
      "code": "500108",
      "name": "南岸区",
      "count": "8",
      "lng": 106.56351,
      "lat": 29.522888
    },
    {
      "code": "500109",
      "name": "北碚区",
      "count": "1",
      "lng": 106.395571,
      "lat": 29.805032
    },
    {
      "code": "500112",
      "name": "渝北区",
      "count": "30",
      "lng": 106.630951,
      "lat": 29.718694
    },
    {
      "code": "500113",
      "name": "巴南区",
      "count": "9",
      "lng": 106.523824,
      "lat": 29.383203
    },
    {
      "code": "500114",
      "name": "黔江区",
      "count": "1",
      "lng": 108.687476,
      "lat": 29.365795
    },
    {
      "code": "500116",
      "name": "江津区",
      "count": "6",
      "lng": 106.259272,
      "lat": 29.290189
    },
    {
      "code": "500117",
      "name": "合川区",
      "count": "1",
      "lng": 106.266667,
      "lat": 29.3
    },
    {
      "code": "500118",
      "name": "永川区",
      "count": "2",
      "lng": 105.930541,
      "lat": 29.358155
    },
    {
      "code": "500119",
      "name": "南川区",
      "count": "2",
      "lng": 107.099276,
      "lat": 29.157849
    },
    {
      "code": "500222",
      "name": "綦江县",
      "count": "1",
      "lng": 106.55,
      "lat": 29.413889
    },
    {
      "code": "500224",
      "name": "铜梁县",
      "count": "1",
      "lng": 106.031081,
      "lat": 29.805748
    },
    {
      "code": "500226",
      "name": "荣昌县",
      "count": "1",
      "lng": 105.513908,
      "lat": 29.466737
    },
    {
      "code": "500227",
      "name": "璧山县",
      "count": "4",
      "lng": 106.199545,
      "lat": 29.582116
    },
    {
      "code": "500228",
      "name": "梁平县",
      "count": "1",
      "lng": 107.740967,
      "lat": 30.62761
    },
    {
      "code": "500230",
      "name": "丰都县",
      "count": "1",
      "lng": 107.79547,
      "lat": 30.00641
    },
    {
      "code": "500233",
      "name": "忠县",
      "count": "1",
      "lng": 107.890946,
      "lat": 30.317053
    },
    {
      "code": "500241",
      "name": "秀山土家族苗族自治县",
      "count": "1",
      "lng": 109.021111,
      "lat": 28.471455
    }
  ]
}