{
  "area": [
    {
      "name": "庐江县",
      "code": 340124,
      "lng": 117.288165,
      "lat": 31.256978
    },
    {
      "name": "巢湖市",
      "code": 340181,
      "lng": 117.890236,
      "lat": 31.624464
    },
    {
      "name": "湾沚区",
      "code": 340210,
      "lng": 118.576124,
      "lat": 31.134809
    },
    {
      "name": "繁昌区",
      "code": 340212,
      "lng": 118.198536,
      "lat": 31.101766
    },
    {
      "name": "无为市",
      "code": 340281,
      "lng": 117.902265,
      "lat": 31.304462
    },
    {
      "name": "寿县",
      "code": 340422,
      "lng": 116.798203,
      "lat": 32.545027
    },
    {
      "name": "博望区",
      "code": 340506,
      "lng": 118.818276,
      "lat": 31.55117
    },
    {
      "name": "含山县",
      "code": 340522,
      "lng": 118.101448,
      "lat": 31.735559
    },
    {
      "name": "和县",
      "code": 340523,
      "lng": 118.353668,
      "lat": 31.74248
    },
    {
      "name": "铜官区",
      "code": 340705,
      "lng": 117.856541,
      "lat": 30.936772
    },
    {
      "name": "义安区",
      "code": 340706,
      "lng": 117.937405,
      "lat": 30.950619
    },
    {
      "name": "枞阳县",
      "code": 340722,
      "lng": 117.250191,
      "lat": 30.705466
    },
    {
      "name": "宜秀区",
      "code": 340811,
      "lng": 116.987469,
      "lat": 30.613189
    },
    {
      "name": "桐城市",
      "code": 340881,
      "lng": 116.936588,
      "lat": 31.035476
    },
    {
      "name": "潜山市",
      "code": 340882,
      "lng": 116.581224,
      "lat": 30.631022
    },
    {
      "name": "天长市",
      "code": 341181,
      "lng": 119.004838,
      "lat": 32.667409
    },
    {
      "name": "明光市",
      "code": 341182,
      "lng": 118.018197,
      "lat": 32.78193
    },
    {
      "name": "界首市",
      "code": 341282,
      "lng": 115.374688,
      "lat": 33.257799
    },
    {
      "name": "金安区",
      "code": 341502,
      "lng": 116.539458,
      "lat": 31.75014
    },
    {
      "name": "裕安区",
      "code": 341503,
      "lng": 116.479505,
      "lat": 31.738789
    },
    {
      "name": "叶集区",
      "code": 341504,
      "lng": 115.925271,
      "lat": 31.863693
    },
    {
      "name": "霍邱县",
      "code": 341522,
      "lng": 116.277966,
      "lat": 32.353362
    },
    {
      "name": "金寨县",
      "code": 341524,
      "lng": 115.934253,
      "lat": 31.727295
    },
    {
      "name": "霍山县",
      "code": 341525,
      "lng": 116.348274,
      "lat": 31.409668
    },
    {
      "name": "舒城县",
      "code": 341523,
      "lng": 116.94863,
      "lat": 31.462036
    },
    {
      "name": "谯城区",
      "code": 341602,
      "lng": 115.779081,
      "lat": 33.876436
    },
    {
      "name": "涡阳县",
      "code": 341621,
      "lng": 116.21665,
      "lat": 33.494134
    },
    {
      "name": "蒙城县",
      "code": 341622,
      "lng": 116.56434,
      "lat": 33.265671
    },
    {
      "name": "利辛县",
      "code": 341623,
      "lng": 116.206396,
      "lat": 33.158424
    },
    {
      "name": "贵池区",
      "code": 341702,
      "lng": 117.568432,
      "lat": 30.687389
    },
    {
      "name": "东至县",
      "code": 341721,
      "lng": 117.027533,
      "lat": 30.111182
    },
    {
      "name": "石台县",
      "code": 341722,
      "lng": 117.486211,
      "lat": 30.210218
    },
    {
      "name": "青阳县",
      "code": 341723,
      "lng": 117.847366,
      "lat": 30.639006
    },
    {
      "name": "宣州区",
      "code": 341802,
      "lng": 118.786098,
      "lat": 30.944356
    },
    {
      "name": "郎溪县",
      "code": 341821,
      "lng": 119.184326,
      "lat": 31.142995
    },
    {
      "name": "绩溪县",
      "code": 341824,
      "lng": 118.578519,
      "lat": 30.067533
    },
    {
      "name": "旌德县",
      "code": 341825,
      "lng": 118.550043,
      "lat": 30.298287
    },
    {
      "name": "泾县",
      "code": 341823,
      "lng": 118.419552,
      "lat": 30.688793
    },
    {
      "name": "宁国市",
      "code": 341881,
      "lng": 118.983085,
      "lat": 30.634032
    },
    {
      "name": "广德市",
      "code": 341882,
      "lng": 119.420799,
      "lat": 30.877608
    },
    {
      "name": "泗县",
      "code": 341324,
      "lng": 117.910277,
      "lat": 33.483686
    },
    {
      "name": "灵璧县",
      "code": 341323,
      "lng": 117.549321,
      "lat": 33.554464
    },
    {
      "name": "萧县",
      "code": 341322,
      "lng": 116.947289,
      "lat": 34.18884
    },
    {
      "name": "砀山县",
      "code": 341321,
      "lng": 116.366257,
      "lat": 34.442139
    },
    {
      "name": "埇桥区",
      "code": 341302,
      "lng": 116.977039,
      "lat": 33.640205
    },
    {
      "name": "颍上县",
      "code": 341226,
      "lng": 116.256772,
      "lat": 32.653211
    },
    {
      "name": "阜南县",
      "code": 341225,
      "lng": 115.596003,
      "lat": 32.659681
    },
    {
      "name": "太和县",
      "code": 341222,
      "lng": 115.621941,
      "lat": 33.160327
    },
    {
      "name": "临泉县",
      "code": 341221,
      "lng": 115.26312,
      "lat": 33.038884
    },
    {
      "name": "颍泉区",
      "code": 341204,
      "lng": 115.807415,
      "lat": 32.925461
    },
    {
      "name": "颍东区",
      "code": 341203,
      "lng": 115.856728,
      "lat": 32.91173
    },
    {
      "name": "颍州区",
      "code": 341202,
      "lng": 115.806916,
      "lat": 32.883322
    },
    {
      "name": "凤阳县",
      "code": 341126,
      "lng": 117.531791,
      "lat": 32.875714
    },
    {
      "name": "定远县",
      "code": 341125,
      "lng": 117.698528,
      "lat": 32.530741
    },
    {
      "name": "全椒县",
      "code": 341124,
      "lng": 118.274149,
      "lat": 32.08593
    },
    {
      "name": "来安县",
      "code": 341122,
      "lng": 118.432581,
      "lat": 32.423072
    },
    {
      "name": "南谯区",
      "code": 341103,
      "lng": 118.416715,
      "lat": 32.200084
    },
    {
      "name": "琅琊区",
      "code": 341102,
      "lng": 118.32115,
      "lat": 32.334475
    },
    {
      "name": "祁门县",
      "code": 341024,
      "lng": 117.717452,
      "lat": 29.854179
    },
    {
      "name": "黟县",
      "code": 341023,
      "lng": 117.938139,
      "lat": 29.92477
    },
    {
      "name": "休宁县",
      "code": 341022,
      "lng": 118.193533,
      "lat": 29.784532
    },
    {
      "name": "歙县",
      "code": 341021,
      "lng": 118.415258,
      "lat": 29.861354
    },
    {
      "name": "徽州区",
      "code": 341004,
      "lng": 118.336799,
      "lat": 29.827291
    },
    {
      "name": "黄山区",
      "code": 341003,
      "lng": 118.141632,
      "lat": 30.272991
    },
    {
      "name": "屯溪区",
      "code": 341002,
      "lng": 118.315012,
      "lat": 29.69655
    },
    {
      "name": "岳西县",
      "code": 340828,
      "lng": 116.359732,
      "lat": 30.849716
    },
    {
      "name": "望江县",
      "code": 340827,
      "lng": 116.70641,
      "lat": 30.128404
    },
    {
      "name": "宿松县",
      "code": 340826,
      "lng": 116.134485,
      "lat": 30.171663
    },
    {
      "name": "太湖县",
      "code": 340825,
      "lng": 116.30881,
      "lat": 30.454198
    },
    {
      "name": "怀宁县",
      "code": 340822,
      "lng": 116.829612,
      "lat": 30.73484
    },
    {
      "name": "大观区",
      "code": 340803,
      "lng": 117.013469,
      "lat": 30.553697
    },
    {
      "name": "迎江区",
      "code": 340802,
      "lng": 117.090878,
      "lat": 30.512768
    },
    {
      "name": "郊区",
      "code": 340711,
      "lng": 117.767919,
      "lat": 30.821699
    },
    {
      "name": "濉溪县",
      "code": 340621,
      "lng": 116.76616,
      "lat": 33.915612
    },
    {
      "name": "烈山区",
      "code": 340604,
      "lng": 116.813221,
      "lat": 33.895407
    },
    {
      "name": "相山区",
      "code": 340603,
      "lng": 116.795233,
      "lat": 33.959927
    },
    {
      "name": "杜集区",
      "code": 340602,
      "lng": 116.827949,
      "lat": 33.991412
    },
    {
      "name": "当涂县",
      "code": 340521,
      "lng": 118.497873,
      "lat": 31.570857
    },
    {
      "name": "雨山区",
      "code": 340504,
      "lng": 118.498675,
      "lat": 31.682374
    },
    {
      "name": "花山区",
      "code": 340503,
      "lng": 118.511366,
      "lat": 31.700127
    },
    {
      "name": "凤台县",
      "code": 340421,
      "lng": 116.710947,
      "lat": 32.710536
    },
    {
      "name": "潘集区",
      "code": 340406,
      "lng": 116.834715,
      "lat": 32.77208
    },
    {
      "name": "八公山区",
      "code": 340405,
      "lng": 116.832979,
      "lat": 32.630922
    },
    {
      "name": "谢家集区",
      "code": 340404,
      "lng": 116.860026,
      "lat": 32.599173
    },
    {
      "name": "田家庵区",
      "code": 340403,
      "lng": 117.017263,
      "lat": 32.647456
    },
    {
      "name": "大通区",
      "code": 340402,
      "lng": 117.053314,
      "lat": 32.631519
    },
    {
      "name": "固镇县",
      "code": 340323,
      "lng": 117.316585,
      "lat": 33.318371
    },
    {
      "name": "五河县",
      "code": 340322,
      "lng": 117.881312,
      "lat": 33.126532
    },
    {
      "name": "怀远县",
      "code": 340321,
      "lng": 117.205083,
      "lat": 32.971543
    },
    {
      "name": "淮上区",
      "code": 340311,
      "lng": 117.359352,
      "lat": 32.96557
    },
    {
      "name": "禹会区",
      "code": 340304,
      "lng": 117.34186,
      "lat": 32.929715
    },
    {
      "name": "蚌山区",
      "code": 340303,
      "lng": 117.373347,
      "lat": 32.916393
    },
    {
      "name": "龙子湖区",
      "code": 340302,
      "lng": 117.454544,
      "lat": 32.90863
    },
    {
      "name": "南陵县",
      "code": 340223,
      "lng": 118.334083,
      "lat": 30.914621
    },
    {
      "name": "鸠江区",
      "code": 340207,
      "lng": 118.392337,
      "lat": 31.369752
    },
    {
      "name": "弋江区",
      "code": 340209,
      "lng": 118.372664,
      "lat": 31.311421
    },
    {
      "name": "镜湖区",
      "code": 340202,
      "lng": 118.385133,
      "lat": 31.34056
    },
    {
      "name": "肥西县",
      "code": 340123,
      "lng": 117.158416,
      "lat": 31.707006
    },
    {
      "name": "肥东县",
      "code": 340122,
      "lng": 117.4779,
      "lat": 31.878601
    },
    {
      "name": "长丰县",
      "code": 340121,
      "lng": 117.167632,
      "lat": 32.478347
    },
    {
      "name": "包河区",
      "code": 340111,
      "lng": 117.310133,
      "lat": 31.793801
    },
    {
      "name": "蜀山区",
      "code": 340104,
      "lng": 117.26053,
      "lat": 31.851211
    },
    {
      "name": "庐阳区",
      "code": 340103,
      "lng": 117.265088,
      "lat": 31.878722
    },
    {
      "name": "瑶海区",
      "code": 340102,
      "lng": 117.30944,
      "lat": 31.858111
    }
  ]
}
